[
  {
    "name": "Yen Bai",
    "id": 1560349,
    "vt": {
      "lon": 104.866669,
      "lat": 21.700001
    }
  },
  {
    "name": "Vung Tau",
    "id": 1562414,
    "vt": {
      "lon": 107.084259,
      "lat": 10.34599
    }
  },
  {
    "name": "Vinh Yen",
    "id": 1562548,
    "vt": {
      "lon": 105.596672,
      "lat": 21.309999
    }
  },
  {
    "name": "Vinh Long",
    "id": 1562693,
    "vt": {
      "lon": 105.966667,
      "lat": 10.25
    }
  },
  {
    "name": "Vinh",
    "id": 1562798,
    "vt": {
      "lon": 105.666672,
      "lat": 18.66667
    }
  },
  {
    "name": "Viet Tri",
    "id": 1562820,
    "vt": {
      "lon": 105.430832,
      "lat": 21.301941
    }
  },
  {
    "name": "Uong Bi",
    "id": 1563241,
    "vt": {
      "lon": 106.783333,
      "lat": 21.033331
    }
  },
  {
    "name": "Tuy Hoa",
    "id": 1563281,
    "vt": {
      "lon": 109.300003,
      "lat": 13.08333
    }
  },
  {
    "name": "Tuyen Quang",
    "id": 1563287,
    "vt": {
      "lon": 105.218063,
      "lat": 21.82333
    }
  },
  {
    "name": "Tra Vinh",
    "id": 1563926,
    "vt": {
      "lon": 106.345284,
      "lat": 9.93472
    }
  },
  {
    "name": "Thu Dau Mot",
    "id": 1565022,
    "vt": {
      "lon": 106.650002,
      "lat": 10.96667
    }
  },
  {
    "name": "Thanh pho Ho Chi Minh",
    "id": 1566083,
    "vt": {
      "lon": 106.666672,
      "lat": 10.75
    }
  },
  {
    "name": "Thanh Hoa",
    "id": 1566166,
    "vt": {
      "lon": 105.76667,
      "lat": 19.799999
    }
  },
  {
    "name": "Thai Nguyen",
    "id": 1566319,
    "vt": {
      "lon": 105.84417,
      "lat": 21.592779
    }
  },
  {
    "name": "Thai Binh",
    "id": 1566346,
    "vt": {
      "lon": 106.333328,
      "lat": 20.450001
    }
  },
  {
    "name": "Tay Ninh",
    "id": 1566559,
    "vt": {
      "lon": 106.099998,
      "lat": 11.3
    }
  },
  {
    "name": "Tan An",
    "id": 1567069,
    "vt": {
      "lon": 106.416672,
      "lat": 10.53333
    }
  },
  {
    "name": "Tam Ky",
    "id": 1567148,
    "vt": {
      "lon": 108.48333,
      "lat": 15.56667
    }
  },
  {
    "name": "Son Tay",
    "id": 1567621,
    "vt": {
      "lon": 105.504997,
      "lat": 21.137779
    }
  },
  {
    "name": "Son La",
    "id": 1567681,
    "vt": {
      "lon": 103.900002,
      "lat": 21.316669
    }
  },
  {
    "name": "Song Cau",
    "id": 1567723,
    "vt": {
      "lon": 109.216667,
      "lat": 13.45
    }
  },
  {
    "name": "Soc Trang",
    "id": 1567788,
    "vt": {
      "lon": 105.980003,
      "lat": 9.60333
    }
  },
  {
    "name": "Sa Pa",
    "id": 1568043,
    "vt": {
      "lon": 103.844147,
      "lat": 22.340231
    }
  },
  {
    "name": "Sa Dec",
    "id": 1568212,
    "vt": {
      "lon": 105.76667,
      "lat": 10.3
    }
  },
  {
    "name": "Rach Gia",
    "id": 1568510,
    "vt": {
      "lon": 105.083328,
      "lat": 10.01667
    }
  },
  {
    "name": "Quy Nhon",
    "id": 1568574,
    "vt": {
      "lon": 109.23333,
      "lat": 13.76667
    }
  },
  {
    "name": "Quang Ngai",
    "id": 1568770,
    "vt": {
      "lon": 108.800003,
      "lat": 15.11667
    }
  },
  {
    "name": "Pleiku",
    "id": 1569684,
    "vt": {
      "lon": 108,
      "lat": 13.98333
    }
  },
  {
    "name": "Phu Ly",
    "id": 1570449,
    "vt": {
      "lon": 105.913887,
      "lat": 20.541109
    }
  },
  {
    "name": "Phu Khuong",
    "id": 1570549,
    "vt": {
      "lon": 106.133331,
      "lat": 11.28333
    }
  },
  {
    "name": "Phan Thiet",
    "id": 1571058,
    "vt": {
      "lon": 108.099998,
      "lat": 10.93333
    }
  },
  {
    "name": "Phan Rang-Thap Cham",
    "id": 1571067,
    "vt": {
      "lon": 108.98333,
      "lat": 11.56667
    }
  },
  {
    "name": "Ninh Binh",
    "id": 1571968,
    "vt": {
      "lon": 105.974998,
      "lat": 20.253889
    }
  },
  {
    "name": "Nha Trang",
    "id": 1572151,
    "vt": {
      "lon": 109.183327,
      "lat": 12.25
    }
  },
  {
    "name": "Nam Dinh",
    "id": 1573517,
    "vt": {
      "lon": 106.166672,
      "lat": 20.41667
    }
  },
  {
    "name": "My Tho",
    "id": 1574023,
    "vt": {
      "lon": 106.349998,
      "lat": 10.35
    }
  },
  {
    "name": "Long Xuyen",
    "id": 1575627,
    "vt": {
      "lon": 105.416672,
      "lat": 10.38333
    }
  },
  {
    "name": "Lao Cai",
    "id": 1576303,
    "vt": {
      "lon": 103.949997,
      "lat": 22.48333
    }
  },
  {
    "name": "Lang Son",
    "id": 1576633,
    "vt": {
      "lon": 106.73333,
      "lat": 21.83333
    }
  },
  {
    "name": "Lagi",
    "id": 1577995,
    "vt": {
      "lon": 107.783333,
      "lat": 10.66667
    }
  },
  {
    "name": "Kon Tum",
    "id": 1578500,
    "vt": {
      "lon": 108,
      "lat": 14.35
    }
  },
  {
    "name": "Hung Yen",
    "id": 1580142,
    "vt": {
      "lon": 106.066673,
      "lat": 20.65
    }
  },
  {
    "name": "Hue",
    "id": 1580240,
    "vt": {
      "lon": 107.599998,
      "lat": 16.466669
    }
  },
  {
    "name": "Ha Long",
    "id": 1580410,
    "vt": {
      "lon": 107.080002,
      "lat": 20.951111
    }
  },
  {
    "name": "Hoi An",
    "id": 1580541,
    "vt": {
      "lon": 108.334999,
      "lat": 15.87944
    }
  },
  {
    "name": "Hoa Binh",
    "id": 1580830,
    "vt": {
      "lon": 105.338333,
      "lat": 20.81333
    }
  },
  {
    "name": "Ha Tinh",
    "id": 1581047,
    "vt": {
      "lon": 105.900002,
      "lat": 18.33333
    }
  },
  {
    "name": "Ha Tien",
    "id": 1581052,
    "vt": {
      "lon": 104.48333,
      "lat": 10.38333
    }
  },
  {
    "name": "Ha Noi",
    "id": 1581130,
    "vt": {
      "lon": 105.841171,
      "lat": 21.0245
    }
  },
  {
    "name": "Haiphong",
    "id": 1581298,
    "vt": {
      "lon": 106.68222,
      "lat": 20.85611
    }
  },
  {
    "name": "Hai Duong",
    "id": 1581326,
    "vt": {
      "lon": 106.316673,
      "lat": 20.933331
    }
  },
  {
    "name": "Ha Giang",
    "id": 1581349,
    "vt": {
      "lon": 104.98333,
      "lat": 22.83333
    }
  },
  {
    "name": "Ha Dong",
    "id": 1581364,
    "vt": {
      "lon": 105.777222,
      "lat": 20.9725
    }
  },
  {
    "name": "Dong Xoai",
    "id": 1582436,
    "vt": {
      "lon": 106.916672,
      "lat": 11.53333
    }
  },
  {
    "name": "Dong Hoi",
    "id": 1582886,
    "vt": {
      "lon": 106.599998,
      "lat": 17.48333
    }
  },
  {
    "name": "Dong Ha",
    "id": 1582926,
    "vt": {
      "lon": 107.100311,
      "lat": 16.81625
    }
  },
  {
    "name": "Dien Bien Phu",
    "id": 1583477,
    "vt": {
      "lon": 103.01667,
      "lat": 21.383329
    }
  },
  {
    "name": "Turan",
    "id": 1583992,
    "vt": {
      "lon": 108.220833,
      "lat": 16.06778
    }
  },
  {
    "name": "Da Lat",
    "id": 1584071,
    "vt": {
      "lon": 108.441933,
      "lat": 11.94646
    }
  },
  {
    "name": "Cu Chi",
    "id": 1584661,
    "vt": {
      "lon": 106.466667,
      "lat": 10.96667
    }
  },
  {
    "name": "Chau Doc",
    "id": 1585660,
    "vt": {
      "lon": 105.116669,
      "lat": 10.7
    }
  },
  {
    "name": "Cao Lanh",
    "id": 1586151,
    "vt": {
      "lon": 105.633331,
      "lat": 10.45
    }
  },
  {
    "name": "Cao Bang",
    "id": 1586185,
    "vt": {
      "lon": 106.25,
      "lat": 22.66667
    }
  },
  {
    "name": "Can Tho",
    "id": 1586203,
    "vt": {
      "lon": 105.783333,
      "lat": 10.03333
    }
  },
  {
    "name": "Can Gio",
    "id": 1586288,
    "vt": {
      "lon": 106.966667,
      "lat": 10.41667
    }
  },
  {
    "name": "Can Duoc",
    "id": 1586296,
    "vt": {
      "lon": 106.666672,
      "lat": 10.61667
    }
  },
  {
    "name": "Cam Ranh",
    "id": 1586350,
    "vt": {
      "lon": 109.159126,
      "lat": 11.92144
    }
  },
  {
    "name": "Cam Pha Mines",
    "id": 1586357,
    "vt": {
      "lon": 107.300003,
      "lat": 21.01667
    }
  },
  {
    "name": "Ca Mau",
    "id": 1586443,
    "vt": {
      "lon": 105.150002,
      "lat": 9.17694
    }
  },
  {
    "name": "Buon Ma Thuot",
    "id": 1586896,
    "vt": {
      "lon": 108.050003,
      "lat": 12.66667
    }
  },
  {
    "name": "Bim Son",
    "id": 1587919,
    "vt": {
      "lon": 105.860283,
      "lat": 20.07806
    }
  },
  {
    "name": "Bien Hoa",
    "id": 1587923,
    "vt": {
      "lon": 106.816673,
      "lat": 10.95
    }
  },
  {
    "name": "Ben Tre",
    "id": 1587976,
    "vt": {
      "lon": 106.383331,
      "lat": 10.23333
    }
  },
  {
    "name": "Bac Ninh",
    "id": 1591449,
    "vt": {
      "lon": 106.050003,
      "lat": 21.183331
    }
  },
  {
    "name": "Thanh pho Bac Lieu",
    "id": 1591474,
    "vt": {
      "lon": 105.724442,
      "lat": 9.285
    }
  },
  {
    "name": "Bac Giang",
    "id": 1591527,
    "vt": {
      "lon": 106.199997,
      "lat": 21.26667
    }
  },
  {
    "name": "Bac Kan",
    "id": 1591538,
    "vt": {
      "lon": 105.833328,
      "lat": 22.133329
    }
  }
]